{"type":"FeatureCollection","features":[{"type":"Feature","properties":{"06/12/2021":3,"07/12/2021":8,"08/12/2021":3,"09/12/2021":9,"10/12/2021":11,"11/12/2021":1,"12/12/2021":3,"id":1,"name":"sale"},"geometry":{"type":"Point","coordinates":[-6.813926696777344,34.044552183299444]}},{"type":"Feature","properties":{"06/12/2021":16,"07/12/2021":7,"08/12/2021":12,"09/12/2021":17,"10/12/2021":8,"11/12/2021":12,"12/12/2021":11,"id":2,"name":"rabat"},"geometry":{"type":"Point","coordinates":[-6.8389892578125,34.025347738147936]}},{"type":"Feature","properties":{"06/12/2021":2,"07/12/2021":13,"08/12/2021":11,"09/12/2021":6,"10/12/2021":8,"11/12/2021":3,"12/12/2021":14,"id":3,"name":"kenitra"},"geometry":{"type":"Point","coordinates":[-6.569480895996094,34.26487768811868]}},{"type":"Feature","properties":{"06/12/2021":2,"07/12/2021":20,"08/12/2021":7,"09/12/2021":7,"10/12/2021":11,"11/12/2021":8,"12/12/2021":13,"id":4,"name":"temara"},"geometry":{"type":"Point","coordinates":[-6.921386718749999,33.920571528675076]}},{"type":"Feature","properties":{"06/12/2021":0,"07/12/2021":0,"08/12/2021":1,"09/12/2021":1,"10/12/2021":0,"11/12/2021":0,"12/12/2021":1,"id":5,"name":"sidi slimane"},"geometry":{"type":"Point","coordinates":[-6.031494140625,34.352506668675936]}},{"type":"Feature","properties":{"06/12/2021":0,"07/12/2021":4,"08/12/2021":4,"09/12/2021":8,"10/12/2021":7,"11/12/2021":0,"12/12/2021":1,"id":6,"name":"sidi kacem"},"geometry":{"type":"Point","coordinates":[-5.712890625,34.23451236236987]}},{"type":"Feature","properties":{"06/12/2021":0,"07/12/2021":0,"08/12/2021":0,"09/12/2021":0,"10/12/2021":1,"11/12/2021":0,"12/12/2021":1,"id":7,"name":"khmisset"},"geometry":{"type":"Point","coordinates":[-6.064453125,33.8430453147447]}}]}